name,state,latitude,longitude
blackjack,MI,46.5021,-90.0046
the_highlands_at_harbor_springs,MI,45.470833,-84.934722
boyne_mountain,MI,45.163889,-84.932778
caberfae_peaks,MI,44.249722,-85.725
"crystal_mountain,_MI",MI,44.52,-85.992222
indianhead_mountain,MI,46.5,-89.970833
marquette_mountain,MI,46.508,-87.42
mont_ripley,MI,47.129167,-88.559444
mount_brighton,MI,42.538056,-83.806944
mulligan's_hollow,MI,43.0564, -86.2393
nub's_nob,MI,45.47, -84.903