name,state,latitude,longitude
pine_knob,MI,42.742252,-83.367163
ski_brule,MI,46.028,-88.701
afton_alps,MN,44.855556,-92.789167
buck_hill,MN,44.724,-93.283
hyland_hills,MN,44.844,-93.364
spirit_mountain,MN,46.719444,-92.218056
welch_village,MN,44.560556,-92.727222
wild_mountain,MN,45.488889,-92.705556