name,state,latitude,longitude
bald_mountain,ID,46.57,-115.87
brundage_mountain,ID,45.005,-116.155
cottonwood_butte,ID,46.0755,-116.4528
little_ski_hill,ID,44.93,-116.163056
lookout_pass,ID,47.453,-115.707
lost_trail_powder_mountain,ID,45.692,-113.952
magic_mountain,ID,42.188306,-114.286111
pebble_creek,ID,42.778,-112.16
pomerelle,ID,42.318,-113.608
rotarun,ID,43.4975,-114.366
silver_mountain,ID,47.495,-116.135
snowhaven,ID,45.869,-116.09
soldier_mountain,ID,43.485,-114.83