name,state,latitude,longitude,size
bear_paw,MT,48.1644, -109.670219,s
blacktail_mountain,MT,48.013056, -114.246944,s
great_divide,MT,46.7497, -112.3043,m
maverick_mountain,MT,45.435, -113.129444,s
red_lodge_mountain,MT,45.191, -109.335,m
showdown,MT,46.838611, -110.708889,s
teton_pass,MT,47.928056, -112.815278,s
turner_mountain,MT,48.605, -115.63,s